[
  {
    "name": "Birnin Gwari",
    "state_code": "KD",
    "state_name": "Kaduna",
    "country_code": "NG",
    "country_name": "Nigeria",
    "latitude": 10.6667,
    "longitude": 6.55
  },
  {
    "name": "Chikun",
    "state_code": "KD",
    "state_name": "Kaduna",
    "country_code": "NG",
    "country_name": "Nigeria",
    "latitude": 10.285059,
    "longitude": 7.110283
  },
  {
    "name": "Giwa",
    "state_code": "KD",
    "state_name": "Kaduna",
    "country_code": "NG",
    "country_name": "Nigeria",
    "latitude": 11.280784,
    "longitude": 7.417606
  },
  {
    "name": "Igabi",
    "state_code": "KD",
    "state_name": "Kaduna",
    "country_code": "NG",
    "country_name": "Nigeria",
    "latitude": 10.78333333,
    "longitude": 7.76666667
  },
  {
    "name": "Ikara",
    "state_code": "KD",
    "state_name": "Kaduna",
    "country_code": "NG",
    "country_name": "Nigeria",
    "latitude": 11.1833,
    "longitude": 8.23333
  },
  {
    "name": "Jaba",
    "state_code": "KD",
    "state_name": "Kaduna",
    "country_code": "NG",
    "country_name": "Nigeria",
    "latitude": 9.44818,
    "longitude": 8.00845
  },
  {
    "name": "Jema'a",
    "state_code": "KD",
    "state_name": "Kaduna",
    "country_code": "NG",
    "country_name": "Nigeria",
    "latitude": 9.578827,
    "longitude": 8.292147
  },
  {
    "name": "Kachia",
    "state_code": "KD",
    "state_name": "Kaduna",
    "country_code": "NG",
    "country_name": "Nigeria",
    "latitude": 9.872636,
    "longitude": 7.955089
  },
  {
    "name": "Kaduna North",
    "state_code": "KD",
    "state_name": "Kaduna",
    "country_code": "NG",
    "country_name": "Nigeria",
    "latitude": 9.923174,
    "longitude": 7.430551
  },
  {
    "name": "Kaduna South",
    "state_code": "KD",
    "state_name": "Kaduna",
    "country_code": "NG",
    "country_name": "Nigeria",
    "latitude": 10.464834,
    "longitude": 7.418024
  },
  {
    "name": "Kagarko",
    "state_code": "KD",
    "state_name": "Kaduna",
    "country_code": "NG",
    "country_name": "Nigeria",
    "latitude": 9.45,
    "longitude": 7.68333333
  },
  {
    "name": "Kajuru",
    "state_code": "KD",
    "state_name": "Kaduna",
    "country_code": "NG",
    "country_name": "Nigeria",
    "latitude": 9.489736,
    "longitude": 7.695075
  },
  {
    "name": "Kaura",
    "state_code": "KD",
    "state_name": "Kaduna",
    "country_code": "NG",
    "country_name": "Nigeria",
    "latitude": 9.630686,
    "longitude": 8.503075
  },
  {
    "name": "Kauru",
    "state_code": "KD",
    "state_name": "Kaduna",
    "country_code": "NG",
    "country_name": "Nigeria",
    "latitude": 10.65,
    "longitude": 8.15
  },
  {
    "name": "Kubau",
    "state_code": "KD",
    "state_name": "Kaduna",
    "country_code": "NG",
    "country_name": "Nigeria",
    "latitude": 10.96289,
    "longitude": 8.392213
  },
  {
    "name": "Kudan",
    "state_code": "KD",
    "state_name": "Kaduna",
    "country_code": "NG",
    "country_name": "Nigeria",
    "latitude": 11.26478,
    "longitude": 7.648952
  },
  {
    "name": "Lere",
    "state_code": "KD",
    "state_name": "Kaduna",
    "country_code": "NG",
    "country_name": "Nigeria",
    "latitude": 10.416589,
    "longitude": 8.681673
  },
  {
    "name": "Makarfi",
    "state_code": "KD",
    "state_name": "Kaduna",
    "country_code": "NG",
    "country_name": "Nigeria",
    "latitude": 11.29795,
    "longitude": 7.96917
  },
  {
    "name": "Sabon Gari",
    "state_code": "KD",
    "state_name": "Kaduna",
    "country_code": "NG",
    "country_name": "Nigeria",
    "latitude": 11.1167,
    "longitude": 7.73333
  },
  {
    "name": "Sanga",
    "state_code": "KD",
    "state_name": "Kaduna",
    "country_code": "NG",
    "country_name": "Nigeria",
    "latitude": 9.225183,
    "longitude": 8.459182
  },
  {
    "name": "Soba",
    "state_code": "KD",
    "state_name": "Kaduna",
    "country_code": "NG",
    "country_name": "Nigeria",
    "latitude": 10.984935,
    "longitude": 8.058804
  },
  {
    "name": "Zangon Kataf",
    "state_code": "KD",
    "state_name": "Kaduna",
    "country_code": "NG",
    "country_name": "Nigeria",
    "latitude": 9.784597,
    "longitude": 8.283949
  },
  {
    "name": "Zaria",
    "state_code": "KD",
    "state_name": "Kaduna",
    "country_code": "NG",
    "country_name": "Nigeria",
    "latitude": 11.06666667,
    "longitude": 7.7
  }
]
