[
  {
    "name": "Asa",
    "state_code": "KW",
    "state_name": "Kwara",
    "country_code": "NG",
    "country_name": "Nigeria",
    "latitude": 8.324804,
    "longitude": 4.533673
  },
  {
    "name": "Baruten",
    "state_code": "KW",
    "state_name": "Kwara",
    "country_code": "NG",
    "country_name": "Nigeria",
    "latitude": 9.58333333,
    "longitude": 3.25
  },
  {
    "name": "Edu",
    "state_code": "KW",
    "state_name": "Kwara",
    "country_code": "NG",
    "country_name": "Nigeria",
    "latitude": 8.841903,
    "longitude": 5.399178
  },
  {
    "name": "Ekiti",
    "state_code": "KW",
    "state_name": "Kwara",
    "country_code": "NG",
    "country_name": "Nigeria",
    "latitude": 8.139435,
    "longitude": 5.32809
  },
  {
    "name": "Ifelodun",
    "state_code": "KW",
    "state_name": "Kwara",
    "country_code": "NG",
    "country_name": "Nigeria",
    "latitude": 8.820023,
    "longitude": 4.967322
  },
  {
    "name": "Ilorin East",
    "state_code": "KW",
    "state_name": "Kwara",
    "country_code": "NG",
    "country_name": "Nigeria",
    "latitude": 8.573234,
    "longitude": 4.703608
  },
  {
    "name": "Ilorin South",
    "state_code": "KW",
    "state_name": "Kwara",
    "country_code": "NG",
    "country_name": "Nigeria",
    "latitude": 8.498688,
    "longitude": 4.562779
  },
  {
    "name": "Ilorin West",
    "state_code": "KW",
    "state_name": "Kwara",
    "country_code": "NG",
    "country_name": "Nigeria",
    "latitude": 8.480048,
    "longitude": 4.614006
  },
  {
    "name": "Irepodun",
    "state_code": "KW",
    "state_name": "Kwara",
    "country_code": "NG",
    "country_name": "Nigeria",
    "latitude": 8.487457,
    "longitude": 4.527301
  },
  {
    "name": "Isin",
    "state_code": "KW",
    "state_name": "Kwara",
    "country_code": "NG",
    "country_name": "Nigeria",
    "latitude": 8.2579064,
    "longitude": 5.038849070678933
  },
  {
    "name": "Kaiama",
    "state_code": "KW",
    "state_name": "Kwara",
    "country_code": "NG",
    "country_name": "Nigeria",
    "latitude": 9.605193,
    "longitude": 3.941946
  },
  {
    "name": "Moro",
    "state_code": "KW",
    "state_name": "Kwara",
    "country_code": "NG",
    "country_name": "Nigeria",
    "latitude": 8.845,
    "longitude": 4.556667
  },
  {
    "name": "Offa",
    "state_code": "KW",
    "state_name": "Kwara",
    "country_code": "NG",
    "country_name": "Nigeria",
    "latitude": 8.147,
    "longitude": 4.72
  },
  {
    "name": "Oke-Ero",
    "state_code": "KW",
    "state_name": "Kwara",
    "country_code": "NG",
    "country_name": "Nigeria",
    "latitude": 8.088888,
    "longitude": 5.144659
  },
  {
    "name": "Oyun",
    "state_code": "KW",
    "state_name": "Kwara",
    "country_code": "NG",
    "country_name": "Nigeria",
    "latitude": 8.16827,
    "longitude": 4.65212
  },
  {
    "name": "Pategi",
    "state_code": "KW",
    "state_name": "Kwara",
    "country_code": "NG",
    "country_name": "Nigeria",
    "latitude": 8.73333333,
    "longitude": 5.75
  }
]
